{"type": "FeatureCollection", "features": [{"type": "Feature", "properties": {"title": "Arrival in Jakarta", "description": "Arrival at Soekarno-Hatta International Airport", "time": "2024-09-02 20:00"}, "geometry": {"type": "Point", "coordinates": [106.6559, -6.1256]}}, {"type": "Feature", "properties": {"title": "Welcome Ceremony at Istana Merdeka", "description": "Official welcome by authorities.", "time": "2024-09-04 09:30"}, "geometry": {"type": "Point", "coordinates": [106.8267, -6.1751]}}, {"type": "Feature", "properties": {"title": "Arrival in Port Moresby", "description": "Arrival at Jacksons International Airport", "time": "2024-09-06 18:50"}, "geometry": {"type": "Point", "coordinates": [147.2186, -9.4438]}}, {"type": "Feature", "properties": {"title": "Holy Mass at Sir John Guise Stadium", "description": "Celebration of Holy Mass.", "time": "2024-09-08 08:45"}, "geometry": {"type": "Point", "coordinates": [147.1895, -9.4544]}}, {"type": "Feature", "properties": {"title": "Arrival in Dili", "description": "Arrival at Presidente Nicolau Lobato International Airport", "time": "2024-09-09 14:10"}, "geometry": {"type": "Point", "coordinates": [125.5263, -8.5464]}}, {"type": "Feature", "properties": {"title": "Holy Mass at Taci Tolu", "description": "Outdoor Mass with local faithful.", "time": "2024-09-10 16:30"}, "geometry": {"type": "Point", "coordinates": [125.5676, -8.5811]}}, {"type": "Feature", "properties": {"title": "Arrival in Singapore", "description": "Arrival at Changi International Airport", "time": "2024-09-11 14:15"}, "geometry": {"type": "Point", "coordinates": [103.9876, 1.3644]}}]}